{
    "bamenda": {
        "name": "Bamenda",
        "districts": [
            {
                "name": "Widekum",
                "asciiname": "Widekum",
                "alternativenames": "",
                "lat": "5.8719",
                "long": "9.7707"
            },
            {
                "name": "Wabinga",
                "asciiname": "Wabinga",
                "alternativenames": "Wabinga",
                "lat": "5.76423",
                "long": "10.27536"
            },
            {
                "name": "Vendu Crater",
                "asciiname": "Vendu Crater",
                "alternativenames": "",
                "lat": "6.05",
                "long": "10.31667"
            },
            {
                "name": "Tugyi",
                "asciiname": "Tugyi",
                "alternativenames": "Tudji,Tugi,Tugyi,Tungie",
                "lat": "6.0831",
                "long": "9.8977"
            },
            {
                "name": "Tsoumbang",
                "asciiname": "Tsoumbang",
                "alternativenames": "Tsoumban,Tsoumbang",
                "lat": "5.72698",
                "long": "10.15646"
            },
            {
                "name": "Tsenken",
                "asciiname": "Tsenken",
                "alternativenames": "",
                "lat": "5.6",
                "long": "10"
            },
            {
                "name": "Tsé Nka",
                "asciiname": "Tse Nka",
                "alternativenames": "",
                "lat": "5.7076",
                "long": "10.21143"
            },
            {
                "name": "Tsé Né",
                "asciiname": "Tse Ne",
                "alternativenames": "",
                "lat": "5.68333",
                "long": "10.2"
            },
            {
                "name": "Tséfontassé",
                "asciiname": "Tsefontasse",
                "alternativenames": "",
                "lat": "5.8",
                "long": "10.43333"
            },
            {
                "name": "Tsé Deng",
                "asciiname": "Tse Deng",
                "alternativenames": "Tse Deng,Tsé Deng",
                "lat": "5.64041",
                "long": "10.21872"
            },
            {
                "name": "Twondi",
                "asciiname": "Twondi",
                "alternativenames": "Touondi,Twondi",
                "lat": "5.75978",
                "long": "10.33369"
            },
            {
                "name": "Toumoungang",
                "asciiname": "Toumoungang",
                "alternativenames": "Toumongoua,Toumougan,Toumougang,Toumoungan,Toumoungang",
                "lat": "5.52881",
                "long": "10.32211"
            },
            {
                "name": "Tiben",
                "asciiname": "Tiben",
                "alternativenames": "",
                "lat": "5.86196",
                "long": "9.8064"
            },
            {
                "name": "Tembou",
                "asciiname": "Tembou",
                "alternativenames": "Tembou",
                "lat": "5.82003",
                "long": "10.55846"
            },
            {
                "name": "Tezie",
                "asciiname": "Tezie",
                "alternativenames": "Tedji,Tezie",
                "lat": "5.94217",
                "long": "9.81488"
            },
            {
                "name": "Tchissozi",
                "asciiname": "Tchissozi",
                "alternativenames": "Tchissosi,Tchissozi",
                "lat": "5.78207",
                "long": "10.41569"
            },
            {
                "name": "Tchingo",
                "asciiname": "Tchingo",
                "alternativenames": "",
                "lat": "5.8",
                "long": "10.36667"
            },
            {
                "name": "Tchi-Ngnyon",
                "asciiname": "Tchi-Ngnyon",
                "alternativenames": "Tchi-Ngnyon,Tchigangon",
                "lat": "5.70331",
                "long": "10.1338"
            },
            {
                "name": "Tchifot",
                "asciiname": "Tchifot",
                "alternativenames": "",
                "lat": "5.75",
                "long": "10.33333"
            },
            {
                "name": "River Tantam",
                "asciiname": "River Tantam",
                "alternativenames": "Ntam,Ntàm,River Tantam,Tantam",
                "lat": "5.76667",
                "long": "10.53333"
            },
            {
                "name": "Sosso",
                "asciiname": "Sosso",
                "alternativenames": "",
                "lat": "5.66667",
                "long": "10.08333"
            },
            {
                "name": "River Sefu",
                "asciiname": "River Sefu",
                "alternativenames": "River Sefu,Sefou,Sefu,Séfou",
                "lat": "5.8",
                "long": "10.45"
            },
            {
                "name": "Santa",
                "asciiname": "Santa",
                "alternativenames": "Santa",
                "lat": "5.79873",
                "long": "10.16094"
            },
            {
                "name": "Sabga",
                "asciiname": "Sabga",
                "alternativenames": "",
                "lat": "6.01667",
                "long": "10.31667"
            },
            {
                "name": "Sabes",
                "asciiname": "Sabes",
                "alternativenames": "",
                "lat": "5.64894",
                "long": "9.87005"
            },
            {
                "name": "Pou",
                "asciiname": "Pou",
                "alternativenames": "",
                "lat": "5.55",
                "long": "9.98333"
            },
            {
                "name": "Pinyin",
                "asciiname": "Pinyin",
                "alternativenames": "",
                "lat": "5.71667",
                "long": "9.98333"
            },
            {
                "name": "Pfendibengu Hill",
                "asciiname": "Pfendibengu Hill",
                "alternativenames": "Pfendibengu Hill",
                "lat": "6.11667",
                "long": "10.25"
            },
            {
                "name": "Oshum",
                "asciiname": "Oshum",
                "alternativenames": "",
                "lat": "5.8781",
                "long": "9.9118"
            },
            {
                "name": "Oshie",
                "asciiname": "Oshie",
                "alternativenames": "Oshie",
                "lat": "6.1273",
                "long": "9.8681"
            },
            {
                "name": "Lake Oku",
                "asciiname": "Lake Oku",
                "alternativenames": "Lake Oku,Mahues See,Mahuès See,Mauwes-See",
                "lat": "6.16667",
                "long": "10.41667"
            },
            {
                "name": "Nzinfeng",
                "asciiname": "Nzinfeng",
                "alternativenames": "Nzinfeng,Nzinfon",
                "lat": "5.46794",
                "long": "10.10339"
            },
            {
                "name": "Nyajua",
                "asciiname": "Nyajua",
                "alternativenames": "",
                "lat": "6.21667",
                "long": "10.4"
            },
            {
                "name": "Ntenkissu",
                "asciiname": "Ntenkissu",
                "alternativenames": "",
                "lat": "6.31667",
                "long": "10.16667"
            },
            {
                "name": "Marais du Kiéfou",
                "asciiname": "Marais du Kiefou",
                "alternativenames": "Marais du Kiefou,Marais du Kiéfou,Marais du Nkouefou,Marais du Nkouéfou",
                "lat": "5.79406",
                "long": "10.50952"
            },
            {
                "name": "Nkossap",
                "asciiname": "Nkossap",
                "alternativenames": "Nkobana,Nkossa,Nkossap",
                "lat": "5.79931",
                "long": "10.3156"
            },
            {
                "name": "Nkemsi",
                "asciiname": "Nkemsi",
                "alternativenames": "",
                "lat": "5.66667",
                "long": "10.36667"
            },
            {
                "name": "Njinikom",
                "asciiname": "Njinikom",
                "alternativenames": "Njinikom,Njnikom",
                "lat": "6.23333",
                "long": "10.28333"
            },
            {
                "name": "Ngouo",
                "asciiname": "Ngouo",
                "alternativenames": "Bangouo,Ngouo",
                "lat": "5.53279",
                "long": "10.18897"
            },
            {
                "name": "Ngotsetzezam",
                "asciiname": "Ngotsetzezam",
                "alternativenames": "",
                "lat": "5.73333",
                "long": "10.41667"
            },
            {
                "name": "Ngotin",
                "asciiname": "Ngotin",
                "alternativenames": "",
                "lat": "6.13333",
                "long": "10.23333"
            },
            {
                "name": "Ngo Tile",
                "asciiname": "Ngo Tile",
                "alternativenames": "Ngo Tile",
                "lat": "6.01667",
                "long": "10.35"
            },
            {
                "name": "Ngonu",
                "asciiname": "Ngonu",
                "alternativenames": "Ngonu,Ngunu",
                "lat": "6.07026",
                "long": "9.79324"
            },
            {
                "name": "Ngona",
                "asciiname": "Ngona",
                "alternativenames": "",
                "lat": "5.8",
                "long": "10.43333"
            },
            {
                "name": "Banefo",
                "asciiname": "Banefo",
                "alternativenames": "Banefo,Nefo,Néfo",
                "lat": "5.58566",
                "long": "10.40496"
            },
            {
                "name": "Ndop Plain",
                "asciiname": "Ndop Plain",
                "alternativenames": "Ndop Plain",
                "lat": "5.93785",
                "long": "10.53474"
            },
            {
                "name": "Andek",
                "asciiname": "Andek",
                "alternativenames": "Andek,Ndek",
                "lat": "5.97641",
                "long": "9.83114"
            },
            {
                "name": "Nchoulat",
                "asciiname": "Nchoulat",
                "alternativenames": "",
                "lat": "5.65",
                "long": "10.46667"
            },
            {
                "name": "River Mugom",
                "asciiname": "River Mugom",
                "alternativenames": "Mugom,River Mugom",
                "lat": "6.18333",
                "long": "10.08333"
            },
            {
                "name": "Mughi",
                "asciiname": "Mughi",
                "alternativenames": "Moffi,Mughi",
                "lat": "6.16667",
                "long": "10.2"
            },
            {
                "name": "Mubadji",
                "asciiname": "Mubadji",
                "alternativenames": "Mubadji,Mubaji",
                "lat": "6.23333",
                "long": "9.88333"
            },
            {
                "name": "Mowuss",
                "asciiname": "Mowuss",
                "alternativenames": "",
                "lat": "6.1",
                "long": "10.16667"
            },
            {
                "name": "Mowum",
                "asciiname": "Mowum",
                "alternativenames": "",
                "lat": "6.15",
                "long": "10.1"
            },
            {
                "name": "Montsé Déyo",
                "asciiname": "Montse Deyo",
                "alternativenames": "Montse Deyo,Montsé Déyo,Monzedeyo,Monzédeyo",
                "lat": "5.79754",
                "long": "10.42999"
            },
            {
                "name": "Montané",
                "asciiname": "Montane",
                "alternativenames": "",
                "lat": "5.58333",
                "long": "10.2"
            },
            {
                "name": "Momo Division",
                "asciiname": "Momo Division",
                "alternativenames": "Memo Division,Momo,Momo Division",
                "lat": "5.90053",
                "long": "9.97445"
            },
            {
                "name": "Mogo",
                "asciiname": "Mogo",
                "alternativenames": "Mogo",
                "lat": "5.67955",
                "long": "10.33802"
            },
            {
                "name": "Mogo",
                "asciiname": "Mogo",
                "alternativenames": "",
                "lat": "5.68333",
                "long": "10.48333"
            },
            {
                "name": "Mme-Bafumen",
                "asciiname": "Mme-Bafumen",
                "alternativenames": "Me,Mme,Mme-Bafumen",
                "lat": "6.33333",
                "long": "10.23333"
            },
            {
                "name": "Messongong",
                "asciiname": "Messongong",
                "alternativenames": "Messongong,Missongon,Mont Messongong",
                "lat": "5.70654",
                "long": "10.27302"
            },
            {
                "name": "Mifi-Nord",
                "asciiname": "Mifi-Nord",
                "alternativenames": "Mifi Nord,Mifi-Nord,Mifin Riviere,Mifin Rivière,River Mifi",
                "lat": "5.62312",
                "long": "10.4591"
            },
            {
                "name": "Mezang",
                "asciiname": "Mezang",
                "alternativenames": "Mezang,Mezong",
                "lat": "5.91667",
                "long": "9.9"
            },
            {
                "name": "Mezam Division",
                "asciiname": "Mezam Division",
                "alternativenames": "Bamenda Division,Mezam,Mezam Division",
                "lat": "5.97851",
                "long": "10.14779"
            },
            {
                "name": "Mévoba",
                "asciiname": "Mevoba",
                "alternativenames": "Mevoba,Meweba,Mévoba",
                "lat": "5.67526",
                "long": "10.3593"
            },
            {
                "name": "Metchié",
                "asciiname": "Metchie",
                "alternativenames": "Depnye,Depnyé,Metchie,Metchié",
                "lat": "5.54078",
                "long": "10.33385"
            },
            {
                "name": "Mési",
                "asciiname": "Mesi",
                "alternativenames": "Mesi,Mési",
                "lat": "5.6",
                "long": "10.3"
            },
            {
                "name": "Mésap",
                "asciiname": "Mesap",
                "alternativenames": "",
                "lat": "5.56667",
                "long": "10.18333"
            },
            {
                "name": "Mere Hill",
                "asciiname": "Mere Hill",
                "alternativenames": "",
                "lat": "6.11667",
                "long": "10.23333"
            },
            {
                "name": "Mentar",
                "asciiname": "Mentar",
                "alternativenames": "",
                "lat": "6.23333",
                "long": "10.08333"
            },
            {
                "name": "Menka",
                "asciiname": "Menka",
                "alternativenames": "",
                "lat": "5.99129",
                "long": "9.71441"
            },
            {
                "name": "Menka",
                "asciiname": "Menka",
                "alternativenames": "Menka",
                "lat": "5.74076",
                "long": "10.09046"
            },
            {
                "name": "Mengen Mbo",
                "asciiname": "Mengen Mbo",
                "alternativenames": "",
                "lat": "5.95",
                "long": "9.96667"
            },
            {
                "name": "Meli",
                "asciiname": "Meli",
                "alternativenames": "",
                "lat": "6.26667",
                "long": "10.23333"
            },
            {
                "name": "River Melam",
                "asciiname": "River Melam",
                "alternativenames": "Melam,River Melam",
                "lat": "6.33333",
                "long": "9.96667"
            },
            {
                "name": "Mékango",
                "asciiname": "Mekango",
                "alternativenames": "",
                "lat": "5.78333",
                "long": "10.5"
            },
            {
                "name": "Mejung",
                "asciiname": "Mejung",
                "alternativenames": "",
                "lat": "6.31667",
                "long": "10.31667"
            },
            {
                "name": "Mejang",
                "asciiname": "Mejang",
                "alternativenames": "",
                "lat": "6.15",
                "long": "10.23333"
            },
            {
                "name": "Megap",
                "asciiname": "Megap",
                "alternativenames": "",
                "lat": "5.58333",
                "long": "9.9"
            },
            {
                "name": "Mefet",
                "asciiname": "Mefet",
                "alternativenames": "Mefet",
                "lat": "5.4985",
                "long": "10.02678"
            },
            {
                "name": "Mbouda",
                "asciiname": "Mbouda",
                "alternativenames": "Mbouda",
                "lat": "5.62611",
                "long": "10.25421"
            },
            {
                "name": "Mbou",
                "asciiname": "Mbou",
                "alternativenames": "",
                "lat": "5.52511",
                "long": "10.12652"
            },
            {
                "name": "Mbinkas",
                "asciiname": "Mbinkas",
                "alternativenames": "",
                "lat": "6.23333",
                "long": "10.11667"
            },
            {
                "name": "Mbguri",
                "asciiname": "Mbguri",
                "alternativenames": "",
                "lat": "6.25",
                "long": "9.95"
            },
            {
                "name": "Mbengwi",
                "asciiname": "Mbengwi",
                "alternativenames": "Mbengwi",
                "lat": "6.01667",
                "long": "10"
            },
            {
                "name": "Mbengo Hill",
                "asciiname": "Mbengo Hill",
                "alternativenames": "",
                "lat": "6.18333",
                "long": "10.28333"
            },
            {
                "name": "Mbengo",
                "asciiname": "Mbengo",
                "alternativenames": "Mbengo,Melong",
                "lat": "6.16667",
                "long": "10.28333"
            },
            {
                "name": "Mbakong",
                "asciiname": "Mbakong",
                "alternativenames": "",
                "lat": "6.26667",
                "long": "10.03333"
            },
            {
                "name": "Mba",
                "asciiname": "Mba",
                "alternativenames": "",
                "lat": "5.8",
                "long": "10.06667"
            },
            {
                "name": "Mankon",
                "asciiname": "Mankon",
                "alternativenames": "Bande,Bandeng,Mankon",
                "lat": "5.9615",
                "long": "10.11274"
            },
            {
                "name": "Mont Mangwa",
                "asciiname": "Mont Mangwa",
                "alternativenames": "Mangoua,Mont Mangwa",
                "lat": "5.67097",
                "long": "10.10558"
            },
            {
                "name": "Mom",
                "asciiname": "Mom",
                "alternativenames": "Mom,River Mam",
                "lat": "5.85394",
                "long": "9.68884"
            },
            {
                "name": "Malou",
                "asciiname": "Malou",
                "alternativenames": "",
                "lat": "5.66667",
                "long": "10.23333"
            },
            {
                "name": "Loung",
                "asciiname": "Loung",
                "alternativenames": "Long,Loung",
                "lat": "5.52409",
                "long": "10.04117"
            },
            {
                "name": "Levongli",
                "asciiname": "Levongli",
                "alternativenames": "Levongli,Levoni,Levonli",
                "lat": "5.51586",
                "long": "10.05457"
            },
            {
                "name": "Lasségué",
                "asciiname": "Lassegue",
                "alternativenames": "Lassegue,Lasségué,Lessege,Lésségé",
                "lat": "5.75436",
                "long": "10.15836"
            },
            {
                "name": "Lépang",
                "asciiname": "Lepang",
                "alternativenames": "",
                "lat": "5.58333",
                "long": "10.28333"
            },
            {
                "name": "Leng",
                "asciiname": "Leng",
                "alternativenames": "Leng,Leng I",
                "lat": "5.47392",
                "long": "10.10429"
            },
            {
                "name": "Lefé",
                "asciiname": "Lefe",
                "alternativenames": "",
                "lat": "5.48472",
                "long": "10.07658"
            },
            {
                "name": "Laikom",
                "asciiname": "Laikom",
                "alternativenames": "Laakom,Laikom",
                "lat": "6.25",
                "long": "10.33333"
            },
            {
                "name": "Lafotio",
                "asciiname": "Lafotio",
                "alternativenames": "",
                "lat": "5.61667",
                "long": "10.21667"
            },
            {
                "name": "Nki-Nilfo",
                "asciiname": "Nki-Nilfo",
                "alternativenames": "Koupti,Kupti,Nki-Nilfo,River Kupti",
                "lat": "5.74434",
                "long": "10.31871"
            },
            {
                "name": "Kouvava",
                "asciiname": "Kouvava",
                "alternativenames": "Kouvara,Kouvava,Kouwawa",
                "lat": "5.66677",
                "long": "10.36297"
            },
            {
                "name": "Kouki",
                "asciiname": "Kouki",
                "alternativenames": "",
                "lat": "5.73333",
                "long": "10.33333"
            },
            {
                "name": "Konche",
                "asciiname": "Konche",
                "alternativenames": "",
                "lat": "6.01667",
                "long": "10.33333"
            },
            {
                "name": "Koaw",
                "asciiname": "Koaw",
                "alternativenames": "Ko,Koaw,Zhoaw",
                "lat": "6.33333",
                "long": "10.06667"
            },
            {
                "name": "Lekwé Khi",
                "asciiname": "Lekwe Khi",
                "alternativenames": "Khi,Lekwe Khi,Lekwé Khi",
                "lat": "5.63573",
                "long": "10.1335"
            },
            {
                "name": "Kékia",
                "asciiname": "Kekia",
                "alternativenames": "",
                "lat": "5.64046",
                "long": "10.21861"
            },
            {
                "name": "Joaka",
                "asciiname": "Joaka",
                "alternativenames": "",
                "lat": "6.26667",
                "long": "10.1"
            },
            {
                "name": "Gonoku",
                "asciiname": "Gonoku",
                "alternativenames": "Gonoku,Guneku",
                "lat": "6.0292",
                "long": "9.9807"
            },
            {
                "name": "Ngoyo",
                "asciiname": "Ngoyo",
                "alternativenames": "Goyou,Ngoyo",
                "lat": "5.7752",
                "long": "10.45718"
            },
            {
                "name": "Nkeung Galim",
                "asciiname": "Nkeung Galim",
                "alternativenames": "Galim,Nkeung Galim",
                "lat": "5.704",
                "long": "10.39823"
            },
            {
                "name": "Fundong",
                "asciiname": "Fundong",
                "alternativenames": "Fundong",
                "lat": "6.25",
                "long": "10.26667"
            },
            {
                "name": "Fonam",
                "asciiname": "Fonam",
                "alternativenames": "Fonam,Funam",
                "lat": "5.98046",
                "long": "9.99174"
            },
            {
                "name": "Fulani",
                "asciiname": "Fulani",
                "alternativenames": "",
                "lat": "6.08333",
                "long": "10.36667"
            },
            {
                "name": "Fujua",
                "asciiname": "Fujua",
                "alternativenames": "Fugua,Fujua",
                "lat": "6.28333",
                "long": "10.28333"
            },
            {
                "name": "Foyanguém",
                "asciiname": "Foyanguem",
                "alternativenames": "Foyangem,Foyanguem,Foyanguém",
                "lat": "5.5183",
                "long": "10.01585"
            },
            {
                "name": "Fowaji",
                "asciiname": "Fowaji",
                "alternativenames": "",
                "lat": "5.53333",
                "long": "10.03333"
            },
            {
                "name": "Foto Ndonchwet",
                "asciiname": "Foto Ndonchwet",
                "alternativenames": "Foto,Foto Ndonchwet,Foto Ndontchouet",
                "lat": "5.52804",
                "long": "9.93647"
            },
            {
                "name": "Fossong-Tsintchuèt",
                "asciiname": "Fossong-Tsintchuet",
                "alternativenames": "Fossong-Tohuentcheu,Fossong-Tsintchuet,Fossong-Tsintchuèt",
                "lat": "5.50971",
                "long": "10.00906"
            },
            {
                "name": "Fossong Eleleng",
                "asciiname": "Fossong Eleleng",
                "alternativenames": "Fossong Eleleng,Fossong Ellelem,Fossong Eteleng",
                "lat": "5.56943",
                "long": "9.97214"
            },
            {
                "name": "Saamaya",
                "asciiname": "Saamaya",
                "alternativenames": "Fo Nou Saamaya,Saamaya",
                "lat": "5.51785",
                "long": "10.09845"
            },
            {
                "name": "Fongo Tongo",
                "asciiname": "Fongo Tongo",
                "alternativenames": "Fongo Tongo",
                "lat": "5.51236",
                "long": "9.99185"
            },
            {
                "name": "Foleshele Lake",
                "asciiname": "Foleshele Lake",
                "alternativenames": "Foleshele Crater,Foleshele Lake",
                "lat": "6.08333",
                "long": "10.35"
            },
            {
                "name": "Foleshele",
                "asciiname": "Foleshele",
                "alternativenames": "Foleshele",
                "lat": "6.1",
                "long": "10.36667"
            },
            {
                "name": "Folembet",
                "asciiname": "Folembet",
                "alternativenames": "",
                "lat": "5.55",
                "long": "10.05"
            },
            {
                "name": "Ewangabi",
                "asciiname": "Ewangabi",
                "alternativenames": "",
                "lat": "5.88333",
                "long": "9.68333"
            },
            {
                "name": "Tinachong",
                "asciiname": "Tinachong",
                "alternativenames": "Etinachong,Tinachong",
                "lat": "6.03636",
                "long": "9.87612"
            },
            {
                "name": "Ntsuétetsa",
                "asciiname": "Ntsuetetsa",
                "alternativenames": "Djutittsa,Djuttitsa,Ntsuetetsa,Ntsuétetsa",
                "lat": "5.57831",
                "long": "10.0945"
            },
            {
                "name": "Ndenkwop",
                "asciiname": "Ndenkwop",
                "alternativenames": "Denkwop,Ndenkwop",
                "lat": "5.48954",
                "long": "10.01102"
            },
            {
                "name": "Batchua",
                "asciiname": "Batchua",
                "alternativenames": "Batchua,Choua",
                "lat": "5.75775",
                "long": "10.15672"
            },
            {
                "name": "Cascade Mes",
                "asciiname": "Cascade Mes",
                "alternativenames": "",
                "lat": "5.63333",
                "long": "10.4"
            },
            {
                "name": "Bwenga Crater",
                "asciiname": "Bwenga Crater",
                "alternativenames": "Bwenga Crater",
                "lat": "6.06667",
                "long": "10.33333"
            },
            {
                "name": "Bu",
                "asciiname": "Bu",
                "alternativenames": "Abu,Bu",
                "lat": "6.26667",
                "long": "10.08333"
            },
            {
                "name": "Besi",
                "asciiname": "Besi",
                "alternativenames": "Besi,Bessi",
                "lat": "5.81558",
                "long": "9.92417"
            },
            {
                "name": "Belo",
                "asciiname": "Belo",
                "alternativenames": "Bello,Belo",
                "lat": "6.13333",
                "long": "10.25"
            },
            {
                "name": "Belet",
                "asciiname": "Belet",
                "alternativenames": "",
                "lat": "5.6",
                "long": "10.33333"
            },
            {
                "name": "Befang",
                "asciiname": "Befang",
                "alternativenames": "",
                "lat": "6.30731",
                "long": "9.98043"
            },
            {
                "name": "Bechati",
                "asciiname": "Bechati",
                "alternativenames": "",
                "lat": "5.66517",
                "long": "9.90798"
            },
            {
                "name": "Batounda",
                "asciiname": "Batounda",
                "alternativenames": "Bafounda,Batounda",
                "lat": "5.56831",
                "long": "10.32124"
            },
            {
                "name": "Batibo",
                "asciiname": "Batibo",
                "alternativenames": "Batibo",
                "lat": "5.8358",
                "long": "9.8553"
            },
            {
                "name": "Bati",
                "asciiname": "Bati",
                "alternativenames": "",
                "lat": "5.66815",
                "long": "10.45036"
            },
            {
                "name": "Batebi",
                "asciiname": "Batebi",
                "alternativenames": "",
                "lat": "6.08564",
                "long": "9.80835"
            },
            {
                "name": "Batcham",
                "asciiname": "Batcham",
                "alternativenames": "Batcham",
                "lat": "5.54516",
                "long": "10.22495"
            },
            {
                "name": "Bat",
                "asciiname": "Bat",
                "alternativenames": "",
                "lat": "6.15",
                "long": "10.45"
            },
            {
                "name": "Bassa",
                "asciiname": "Bassa",
                "alternativenames": "",
                "lat": "6.2011",
                "long": "9.7857"
            },
            {
                "name": "Baranka",
                "asciiname": "Baranka",
                "alternativenames": "Baranka",
                "lat": "5.63207",
                "long": "10.0264"
            },
            {
                "name": "Bapi",
                "asciiname": "Bapi",
                "alternativenames": "Bapi",
                "lat": "5.55618",
                "long": "10.37209"
            },
            {
                "name": "Mont Bantso",
                "asciiname": "Mont Bantso",
                "alternativenames": "Bantso,Mont Bantso",
                "lat": "5.70951",
                "long": "10.08546"
            },
            {
                "name": "Ngang",
                "asciiname": "Ngang",
                "alternativenames": "Bangang,Ngang",
                "lat": "5.56747",
                "long": "10.17435"
            },
            {
                "name": "Banek",
                "asciiname": "Banek",
                "alternativenames": "",
                "lat": "5.53333",
                "long": "9.95"
            },
            {
                "name": "Bandeng",
                "asciiname": "Bandeng",
                "alternativenames": "Bandeng",
                "lat": "5.58651",
                "long": "10.36914"
            },
            {
                "name": "Ndop",
                "asciiname": "Ndop",
                "alternativenames": "Bamunka,Ndop,Ramunka",
                "lat": "5.98843",
                "long": "10.43859"
            },
            {
                "name": "Bamundum",
                "asciiname": "Bamundum",
                "alternativenames": "",
                "lat": "6.16181",
                "long": "9.94836"
            },
            {
                "name": "Bamumkumbit",
                "asciiname": "Bamumkumbit",
                "alternativenames": "Bamumkumbit,Bamunkumbit",
                "lat": "5.81667",
                "long": "10.41667"
            },
            {
                "name": "Bamougong",
                "asciiname": "Bamougong",
                "alternativenames": "Bamougong",
                "lat": "5.59546",
                "long": "10.21463"
            },
            {
                "name": "Baminje",
                "asciiname": "Baminje",
                "alternativenames": "",
                "lat": "6.05687",
                "long": "9.81492"
            },
            {
                "name": "River Bamig",
                "asciiname": "River Bamig",
                "alternativenames": "Bamig,River Bamig",
                "lat": "5.55",
                "long": "9.95"
            },
            {
                "name": "Bametsé",
                "asciiname": "Bametse",
                "alternativenames": "Bametse,Bametsé,Tioumitse,Tioumitsé",
                "lat": "5.58333",
                "long": "10.11667"
            },
            {
                "name": "Bamesso",
                "asciiname": "Bamesso",
                "alternativenames": "Bamesso",
                "lat": "5.6422",
                "long": "10.32978"
            },
            {
                "name": "Bamessing",
                "asciiname": "Bamessing",
                "alternativenames": "Bamessing",
                "lat": "5.97848",
                "long": "10.36149"
            },
            {
                "name": "Bamessingoe",
                "asciiname": "Bamessingoe",
                "alternativenames": "Bamessing,Bamessingoe",
                "lat": "5.65454",
                "long": "10.23491"
            },
            {
                "name": "Bamessi",
                "asciiname": "Bamessi",
                "alternativenames": "Babessi,Bamessi",
                "lat": "6.01667",
                "long": "10.56667"
            },
            {
                "name": "Bamenyam",
                "asciiname": "Bamenyam",
                "alternativenames": "",
                "lat": "5.75585",
                "long": "10.32574"
            },
            {
                "name": "Bamenkombo",
                "asciiname": "Bamenkombo",
                "alternativenames": "Bamenkombo",
                "lat": "5.61993",
                "long": "10.31956"
            },
            {
                "name": "Bamendjeu",
                "asciiname": "Bamendjeu",
                "alternativenames": "Bamendjeu,Bamendjo,Bamenjo",
                "lat": "5.55642",
                "long": "10.28078"
            },
            {
                "name": "Lac de Bamendjing",
                "asciiname": "Lac de Bamendjing",
                "alternativenames": "Bamendjing Reservoir,Lac de Bamendjing",
                "lat": "5.83333",
                "long": "10.5"
            },
            {
                "name": "Barrage de Bamendjing",
                "asciiname": "Barrage de Bamendjing",
                "alternativenames": "Barrage de Bamendjing",
                "lat": "5.7",
                "long": "10.5"
            },
            {
                "name": "Bamendjing",
                "asciiname": "Bamendjing",
                "alternativenames": "Bamendjing,Bamindjin",
                "lat": "5.70526",
                "long": "10.48475"
            },
            {
                "name": "Bamendjinda",
                "asciiname": "Bamendjinda",
                "alternativenames": "Bamendjinda,Baminjinda",
                "lat": "5.60888",
                "long": "10.29418"
            },
            {
                "name": "Bamenda",
                "asciiname": "Bamenda",
                "alternativenames": "BPC,Bamenda,Bamendy,ba men da,bamenda,bamynda,Баменда,Баменды,بامیندا,バメンダ,巴门达,바멘다",
                "lat": "5.9597",
                "long": "10.14597"
            },
            {
                "name": "Awing Bambuluwe",
                "asciiname": "Awing Bambuluwe",
                "alternativenames": "Awing,Awing Bambuluwe,Bambuluwe,Bambuluwé",
                "lat": "5.84423",
                "long": "10.25933"
            },
            {
                "name": "Lac Bambuluwe",
                "asciiname": "Lac Bambuluwe",
                "alternativenames": "Bambulue-See,Bambuluwe Lake,Bambuluë-See,Lac Bambuluwe,Lake Bambulue",
                "lat": "5.8619",
                "long": "10.19767"
            },
            {
                "name": "Bambui",
                "asciiname": "Bambui",
                "alternativenames": "Bambui",
                "lat": "6.05",
                "long": "10.23333"
            },
            {
                "name": "Réserve Forestière des Bambouto",
                "asciiname": "Reserve Forestiere des Bambouto",
                "alternativenames": "Reserve Forestiere des Bambouto,Reserve Forestiere des Bamboutos,Réserve Forestière des Bambouto,Réserve Forestière des Bamboutos",
                "lat": "5.62631",
                "long": "10.08784"
            },
            {
                "name": "Département de Bamboutos",
                "asciiname": "Departement de Bamboutos",
                "alternativenames": "Bamboutos,Departement de Bamboutos,Département de Bamboutos",
                "lat": "5.63333",
                "long": "10.25"
            },
            {
                "name": "Monts Bambouto",
                "asciiname": "Monts Bambouto",
                "alternativenames": "Bambuto-Gebirge,Mont Bamboutos,Monts Bambouto",
                "lat": "5.63726",
                "long": "10.11667"
            },
            {
                "name": "Bambili",
                "asciiname": "Bambili",
                "alternativenames": "Bambili",
                "lat": "5.98949",
                "long": "10.25064"
            },
            {
                "name": "Bambalang",
                "asciiname": "Bambalang",
                "alternativenames": "Bambalang",
                "lat": "5.8868",
                "long": "10.53314"
            },
            {
                "name": "Bamali",
                "asciiname": "Bamali",
                "alternativenames": "Bamale,Bamali",
                "lat": "5.94547",
                "long": "10.42202"
            },
            {
                "name": "Balso",
                "asciiname": "Balso",
                "alternativenames": "",
                "lat": "6.25",
                "long": "10.16667"
            },
            {
                "name": "Balikumbat",
                "asciiname": "Balikumbat",
                "alternativenames": "Balikumbat",
                "lat": "5.89267",
                "long": "10.35983"
            },
            {
                "name": "Baliben",
                "asciiname": "Baliben",
                "alternativenames": "",
                "lat": "5.85",
                "long": "9.78333"
            },
            {
                "name": "Bali-Bagam",
                "asciiname": "Bali-Bagam",
                "alternativenames": "Bali-Bagam,Baligham,Balighansin",
                "lat": "5.71667",
                "long": "10.26667"
            },
            {
                "name": "Bali",
                "asciiname": "Bali",
                "alternativenames": "BLC,Bali,Бали",
                "lat": "5.88737",
                "long": "10.01176"
            },
            {
                "name": "Baleveng",
                "asciiname": "Baleveng",
                "alternativenames": "Baleveng",
                "lat": "5.49056",
                "long": "10.15974"
            },
            {
                "name": "Lessing",
                "asciiname": "Lessing",
                "alternativenames": "Balessing,Lessing",
                "lat": "5.50262",
                "long": "10.23359"
            },
            {
                "name": "Lessé",
                "asciiname": "Lesse",
                "alternativenames": "Balesse,Balessé,Lesse,Lessé",
                "lat": "5.48343",
                "long": "10.01033"
            },
            {
                "name": "La’tchuè",
                "asciiname": "La'tchue",
                "alternativenames": "Balatchi,La'tchue,La’tchuè",
                "lat": "5.62439",
                "long": "10.16388"
            },
            {
                "name": "Bako",
                "asciiname": "Bako",
                "alternativenames": "",
                "lat": "6.203",
                "long": "9.8357"
            },
            {
                "name": "Babanki Tungo",
                "asciiname": "Babanki Tungo",
                "alternativenames": "Babanki Tungo,Bakanki,Bakanki Tungo",
                "lat": "5.98166",
                "long": "10.31584"
            },
            {
                "name": "Baka",
                "asciiname": "Baka",
                "alternativenames": "",
                "lat": "6.13333",
                "long": "10.13333"
            },
            {
                "name": "Baicham",
                "asciiname": "Baicham",
                "alternativenames": "",
                "lat": "6.18333",
                "long": "10.23333"
            },
            {
                "name": "Bagam",
                "asciiname": "Bagam",
                "alternativenames": "Bagam,Bangam",
                "lat": "5.69093",
                "long": "10.29323"
            },
            {
                "name": "Bafut",
                "asciiname": "Bafut",
                "alternativenames": "Bafut",
                "lat": "6.08333",
                "long": "10.1"
            },
            {
                "name": "Bafreng",
                "asciiname": "Bafreng",
                "alternativenames": "Bafreng",
                "lat": "5.97857",
                "long": "10.17867"
            },
            {
                "name": "Bafou",
                "asciiname": "Bafou",
                "alternativenames": "Bafou",
                "lat": "5.47026",
                "long": "10.1185"
            },
            {
                "name": "Bafanji",
                "asciiname": "Bafanji",
                "alternativenames": "Bafani,Bafanji",
                "lat": "5.83532",
                "long": "10.40649"
            },
            {
                "name": "Babungo",
                "asciiname": "Babungo",
                "alternativenames": "Babungo,Banbungo",
                "lat": "6.06667",
                "long": "10.43333"
            },
            {
                "name": "Bosa",
                "asciiname": "Bosa",
                "alternativenames": "Babosa,Babossa,Bosa,Bossa",
                "lat": "5.93229",
                "long": "9.98034"
            },
            {
                "name": "Babète",
                "asciiname": "Babete",
                "alternativenames": "",
                "lat": "5.6",
                "long": "10.26667"
            },
            {
                "name": "Babanki",
                "asciiname": "Babanki",
                "alternativenames": "Babanki,Big Babanki",
                "lat": "6.11667",
                "long": "10.25"
            },
            {
                "name": "Baba I",
                "asciiname": "Baba I",
                "alternativenames": "Baba,Baba I",
                "lat": "6.03333",
                "long": "10.46667"
            },
            {
                "name": "Dent de Babadjou",
                "asciiname": "Dent de Babadjou",
                "alternativenames": "Dent de Babadjou",
                "lat": "5.66661",
                "long": "10.10208"
            },
            {
                "name": "Babadjou",
                "asciiname": "Babadjou",
                "alternativenames": "Babadjou",
                "lat": "5.67153",
                "long": "10.17918"
            },
            {
                "name": "Azem",
                "asciiname": "Azem",
                "alternativenames": "",
                "lat": "5.90559",
                "long": "9.79695"
            },
            {
                "name": "Ashong",
                "asciiname": "Ashong",
                "alternativenames": "",
                "lat": "5.77724",
                "long": "9.9659"
            },
            {
                "name": "Anguie",
                "asciiname": "Anguie",
                "alternativenames": "Angie,Anguie",
                "lat": "5.80063",
                "long": "9.80881"
            },
            {
                "name": "Agwofon",
                "asciiname": "Agwofon",
                "alternativenames": "",
                "lat": "5.73333",
                "long": "9.95"
            },
            {
                "name": "Afom Baba",
                "asciiname": "Afom Baba",
                "alternativenames": "",
                "lat": "6.13333",
                "long": "10.03333"
            },
            {
                "name": "Bamenda",
                "asciiname": "Bamenda",
                "alternativenames": "BPC,FKKV",
                "lat": "6.03924",
                "long": "10.12264"
            },
            {
                "name": "Agen",
                "asciiname": "Agen",
                "alternativenames": "Agen",
                "lat": "6.0022",
                "long": "9.8478"
            },
            {
                "name": "Abeshia",
                "asciiname": "Abeshia",
                "alternativenames": "",
                "lat": "6.0034",
                "long": "9.767"
            },
            {
                "name": "Nyen",
                "asciiname": "Nyen",
                "alternativenames": "",
                "lat": "6.0044",
                "long": "9.9857"
            },
            {
                "name": "Djlmbi",
                "asciiname": "Djlmbi",
                "alternativenames": "",
                "lat": "6.0053",
                "long": "9.9696"
            },
            {
                "name": "Akuta",
                "asciiname": "Akuta",
                "alternativenames": "",
                "lat": "6.0058",
                "long": "9.8201"
            },
            {
                "name": "Ebang",
                "asciiname": "Ebang",
                "alternativenames": "",
                "lat": "6.00615",
                "long": "9.80043"
            },
            {
                "name": "Etet",
                "asciiname": "Etet",
                "alternativenames": "",
                "lat": "6.01482",
                "long": "9.79259"
            },
            {
                "name": "Batadju",
                "asciiname": "Batadju",
                "alternativenames": "",
                "lat": "6.0194",
                "long": "9.7145"
            },
            {
                "name": "Ango",
                "asciiname": "Ango",
                "alternativenames": "",
                "lat": "6.032",
                "long": "9.78669"
            },
            {
                "name": "Djindong",
                "asciiname": "Djindong",
                "alternativenames": "",
                "lat": "6.0323",
                "long": "9.9925"
            },
            {
                "name": "Bataka",
                "asciiname": "Bataka",
                "alternativenames": "",
                "lat": "6.03728",
                "long": "9.74087"
            },
            {
                "name": "Kutin",
                "asciiname": "Kutin",
                "alternativenames": "",
                "lat": "6.04387",
                "long": "9.7836"
            },
            {
                "name": "Bananka",
                "asciiname": "Bananka",
                "alternativenames": "",
                "lat": "6.04684",
                "long": "9.71259"
            },
            {
                "name": "Akanunku",
                "asciiname": "Akanunku",
                "alternativenames": "",
                "lat": "6.05182",
                "long": "9.70316"
            },
            {
                "name": "Njor",
                "asciiname": "Njor",
                "alternativenames": "",
                "lat": "6.0652",
                "long": "9.7734"
            },
            {
                "name": "Sabri",
                "asciiname": "Sabri",
                "alternativenames": "",
                "lat": "6.0758",
                "long": "9.7911"
            },
            {
                "name": "Ekao",
                "asciiname": "Ekao",
                "alternativenames": "",
                "lat": "6.0767",
                "long": "9.7519"
            },
            {
                "name": "Tumannbeng",
                "asciiname": "Tumannbeng",
                "alternativenames": "",
                "lat": "6.0807",
                "long": "9.9571"
            },
            {
                "name": "Kofuta",
                "asciiname": "Kofuta",
                "alternativenames": "Kofuta",
                "lat": "6.0816",
                "long": "9.7208"
            },
            {
                "name": "Tchikpa",
                "asciiname": "Tchikpa",
                "alternativenames": "",
                "lat": "6.08777",
                "long": "9.71561"
            },
            {
                "name": "Nshia",
                "asciiname": "Nshia",
                "alternativenames": "Nshia",
                "lat": "6.0879",
                "long": "9.7302"
            },
            {
                "name": "Aufo",
                "asciiname": "Aufo",
                "alternativenames": "",
                "lat": "6.0913",
                "long": "9.7959"
            },
            {
                "name": "Atvébé",
                "asciiname": "Atvebe",
                "alternativenames": "",
                "lat": "6.09511",
                "long": "9.86677"
            },
            {
                "name": "Ngwo",
                "asciiname": "Ngwo",
                "alternativenames": "",
                "lat": "6.0953",
                "long": "9.8103"
            },
            {
                "name": "Aya",
                "asciiname": "Aya",
                "alternativenames": "",
                "lat": "6.0959",
                "long": "9.778"
            },
            {
                "name": "Tugyi",
                "asciiname": "Tugyi",
                "alternativenames": "Tugyi",
                "lat": "6.0961",
                "long": "9.9151"
            },
            {
                "name": "Bechebat",
                "asciiname": "Bechebat",
                "alternativenames": "",
                "lat": "6.1038",
                "long": "9.96664"
            },
            {
                "name": "Bué",
                "asciiname": "Bue",
                "alternativenames": "Bue,Bué",
                "lat": "6.105",
                "long": "9.8543"
            },
            {
                "name": "Tikagwené",
                "asciiname": "Tikagwene",
                "alternativenames": "Tikagwene,Tikagwené",
                "lat": "6.1054",
                "long": "9.7357"
            },
            {
                "name": "Gangeu",
                "asciiname": "Gangeu",
                "alternativenames": "",
                "lat": "6.1074",
                "long": "9.9453"
            },
            {
                "name": "Oke-Nkundi",
                "asciiname": "Oke-Nkundi",
                "alternativenames": "",
                "lat": "6.1109",
                "long": "9.8909"
            },
            {
                "name": "Menam",
                "asciiname": "Menam",
                "alternativenames": "",
                "lat": "6.1119",
                "long": "9.9923"
            },
            {
                "name": "Gumben",
                "asciiname": "Gumben",
                "alternativenames": "",
                "lat": "6.11524",
                "long": "9.99631"
            },
            {
                "name": "Gangeu",
                "asciiname": "Gangeu",
                "alternativenames": "",
                "lat": "6.12104",
                "long": "9.94021"
            },
            {
                "name": "Ekpiri",
                "asciiname": "Ekpiri",
                "alternativenames": "",
                "lat": "6.1274",
                "long": "9.8328"
            },
            {
                "name": "Atando",
                "asciiname": "Atando",
                "alternativenames": "",
                "lat": "6.1301",
                "long": "9.7976"
            },
            {
                "name": "Bakwa",
                "asciiname": "Bakwa",
                "alternativenames": "",
                "lat": "6.1309",
                "long": "9.8392"
            },
            {
                "name": "Mana",
                "asciiname": "Mana",
                "alternativenames": "",
                "lat": "6.1378",
                "long": "9.9821"
            },
            {
                "name": "Niko",
                "asciiname": "Niko",
                "alternativenames": "",
                "lat": "6.1383",
                "long": "9.8868"
            },
            {
                "name": "Ozami",
                "asciiname": "Ozami",
                "alternativenames": "",
                "lat": "6.1403",
                "long": "9.9357"
            },
            {
                "name": "Chup",
                "asciiname": "Chup",
                "alternativenames": "",
                "lat": "6.1425",
                "long": "9.9263"
            },
            {
                "name": "Edomafu",
                "asciiname": "Edomafu",
                "alternativenames": "",
                "lat": "6.1446",
                "long": "9.8532"
            },
            {
                "name": "Nebeba",
                "asciiname": "Nebeba",
                "alternativenames": "",
                "lat": "6.1504",
                "long": "9.9741"
            },
            {
                "name": "Oko-bongwan",
                "asciiname": "Oko-bongwan",
                "alternativenames": "Oko-bongwan",
                "lat": "6.1534",
                "long": "9.8935"
            },
            {
                "name": "Kondo",
                "asciiname": "Kondo",
                "alternativenames": "",
                "lat": "6.1693",
                "long": "9.8666"
            },
            {
                "name": "Mbot",
                "asciiname": "Mbot",
                "alternativenames": "",
                "lat": "6.1695",
                "long": "9.9618"
            },
            {
                "name": "Fringen",
                "asciiname": "Fringen",
                "alternativenames": "",
                "lat": "6.1747",
                "long": "9.9309"
            },
            {
                "name": "Banya",
                "asciiname": "Banya",
                "alternativenames": "",
                "lat": "6.1777",
                "long": "9.8338"
            },
            {
                "name": "Ewep",
                "asciiname": "Ewep",
                "alternativenames": "",
                "lat": "6.1808",
                "long": "9.7897"
            },
            {
                "name": "Amassi",
                "asciiname": "Amassi",
                "alternativenames": "",
                "lat": "6.1827",
                "long": "9.7726"
            },
            {
                "name": "Ekperi",
                "asciiname": "Ekperi",
                "alternativenames": "",
                "lat": "6.1876",
                "long": "9.8035"
            },
            {
                "name": "Barimbong",
                "asciiname": "Barimbong",
                "alternativenames": "",
                "lat": "6.1981",
                "long": "9.9015"
            },
            {
                "name": "Ganngeu",
                "asciiname": "Ganngeu",
                "alternativenames": "",
                "lat": "6.2112",
                "long": "9.9443"
            },
            {
                "name": "Batadji",
                "asciiname": "Batadji",
                "alternativenames": "",
                "lat": "6.2309",
                "long": "9.8628"
            },
            {
                "name": "Mudum II",
                "asciiname": "Mudum II",
                "alternativenames": "",
                "lat": "6.2349",
                "long": "9.9457"
            },
            {
                "name": "Shishong",
                "asciiname": "Shishong",
                "alternativenames": "",
                "lat": "6.2372",
                "long": "9.9047"
            },
            {
                "name": "Bugri",
                "asciiname": "Bugri",
                "alternativenames": "",
                "lat": "6.2557",
                "long": "9.9862"
            },
            {
                "name": "Magu",
                "asciiname": "Magu",
                "alternativenames": "",
                "lat": "6.2621",
                "long": "9.9197"
            },
            {
                "name": "Okoromanjang",
                "asciiname": "Okoromanjang",
                "alternativenames": "",
                "lat": "6.2915",
                "long": "9.9225"
            },
            {
                "name": "Mabong",
                "asciiname": "Mabong",
                "alternativenames": "",
                "lat": "6.2925",
                "long": "9.9319"
            },
            {
                "name": "Mukura",
                "asciiname": "Mukura",
                "alternativenames": "",
                "lat": "6.32535",
                "long": "9.95424"
            },
            {
                "name": "Bwotong",
                "asciiname": "Bwotong",
                "alternativenames": "",
                "lat": "6.3306",
                "long": "9.9595"
            },
            {
                "name": "Afinebe",
                "asciiname": "Afinebe",
                "alternativenames": "",
                "lat": "6.332",
                "long": "9.994"
            },
            {
                "name": "Barambichang",
                "asciiname": "Barambichang",
                "alternativenames": "",
                "lat": "5.9641",
                "long": "9.6972"
            },
            {
                "name": "Egbeachu",
                "asciiname": "Egbeachu",
                "alternativenames": "",
                "lat": "5.9337",
                "long": "9.6963"
            },
            {
                "name": "Olorunti",
                "asciiname": "Olorunti",
                "alternativenames": "",
                "lat": "5.9177",
                "long": "9.6867"
            },
            {
                "name": "Man",
                "asciiname": "Man",
                "alternativenames": "",
                "lat": "5.8546",
                "long": "9.6899"
            },
            {
                "name": "Mpam",
                "asciiname": "Mpam",
                "alternativenames": "",
                "lat": "5.864",
                "long": "9.7352"
            },
            {
                "name": "Denku",
                "asciiname": "Denku",
                "alternativenames": "",
                "lat": "5.8778",
                "long": "9.7279"
            },
            {
                "name": "Befang",
                "asciiname": "Befang",
                "alternativenames": "",
                "lat": "5.8839",
                "long": "9.7614"
            },
            {
                "name": "Oche",
                "asciiname": "Oche",
                "alternativenames": "",
                "lat": "5.8906",
                "long": "9.715"
            },
            {
                "name": "Bulam",
                "asciiname": "Bulam",
                "alternativenames": "",
                "lat": "5.9073",
                "long": "9.7307"
            },
            {
                "name": "Bendi",
                "asciiname": "Bendi",
                "alternativenames": "",
                "lat": "5.9014",
                "long": "9.7537"
            },
            {
                "name": "Gana",
                "asciiname": "Gana",
                "alternativenames": "",
                "lat": "5.9215",
                "long": "9.7475"
            },
            {
                "name": "Angwi",
                "asciiname": "Angwi",
                "alternativenames": "",
                "lat": "5.91",
                "long": "9.7834"
            },
            {
                "name": "Bajem",
                "asciiname": "Bajem",
                "alternativenames": "",
                "lat": "5.8933",
                "long": "9.775"
            },
            {
                "name": "Bamben",
                "asciiname": "Bamben",
                "alternativenames": "",
                "lat": "5.8888",
                "long": "9.7927"
            },
            {
                "name": "Mbengok",
                "asciiname": "Mbengok",
                "alternativenames": "",
                "lat": "5.9004",
                "long": "9.8298"
            },
            {
                "name": "Ofit",
                "asciiname": "Ofit",
                "alternativenames": "",
                "lat": "5.8937",
                "long": "9.8588"
            },
            {
                "name": "Angong",
                "asciiname": "Angong",
                "alternativenames": "",
                "lat": "5.8972",
                "long": "9.9012"
            },
            {
                "name": "Mbunjei",
                "asciiname": "Mbunjei",
                "alternativenames": "",
                "lat": "5.8531",
                "long": "9.9008"
            },
            {
                "name": "Mbengok",
                "asciiname": "Mbengok",
                "alternativenames": "",
                "lat": "5.8489",
                "long": "9.8525"
            },
            {
                "name": "Korube",
                "asciiname": "Korube",
                "alternativenames": "",
                "lat": "5.8462",
                "long": "9.8368"
            },
            {
                "name": "Numben",
                "asciiname": "Numben",
                "alternativenames": "",
                "lat": "5.8687",
                "long": "9.825"
            },
            {
                "name": "Nguenmawa",
                "asciiname": "Nguenmawa",
                "alternativenames": "Ngenmawa,Nguenmawa",
                "lat": "5.8904",
                "long": "9.9574"
            },
            {
                "name": "Mukwo",
                "asciiname": "Mukwo",
                "alternativenames": "",
                "lat": "5.8725",
                "long": "9.97"
            },
            {
                "name": "Jemajema",
                "asciiname": "Jemajema",
                "alternativenames": "",
                "lat": "5.8713",
                "long": "9.9833"
            },
            {
                "name": "Mbutong",
                "asciiname": "Mbutong",
                "alternativenames": "",
                "lat": "5.8472",
                "long": "9.9858"
            },
            {
                "name": "Guzang",
                "asciiname": "Guzang",
                "alternativenames": "",
                "lat": "5.8388",
                "long": "9.9324"
            },
            {
                "name": "Nyenjei",
                "asciiname": "Nyenjei",
                "alternativenames": "",
                "lat": "5.8634",
                "long": "9.9147"
            },
            {
                "name": "Kurabi",
                "asciiname": "Kurabi",
                "alternativenames": "",
                "lat": "5.9",
                "long": "9.9278"
            },
            {
                "name": "Momom",
                "asciiname": "Momom",
                "alternativenames": "",
                "lat": "5.8883",
                "long": "9.9143"
            },
            {
                "name": "Mokumo",
                "asciiname": "Mokumo",
                "alternativenames": "",
                "lat": "5.9004",
                "long": "9.9127"
            },
            {
                "name": "Manga",
                "asciiname": "Manga",
                "alternativenames": "",
                "lat": "5.9006",
                "long": "9.9119"
            },
            {
                "name": "Gwofon",
                "asciiname": "Gwofon",
                "alternativenames": "",
                "lat": "5.9112",
                "long": "9.92"
            },
            {
                "name": "Kai",
                "asciiname": "Kai",
                "alternativenames": "",
                "lat": "5.9346",
                "long": "9.9313"
            },
            {
                "name": "Ntah Etuh",
                "asciiname": "Ntah Etuh",
                "alternativenames": "",
                "lat": "5.9544",
                "long": "9.9497"
            },
            {
                "name": "Jimda",
                "asciiname": "Jimda",
                "alternativenames": "",
                "lat": "5.9625",
                "long": "9.961"
            },
            {
                "name": "Tudig",
                "asciiname": "Tudig",
                "alternativenames": "",
                "lat": "5.9769",
                "long": "9.9521"
            },
            {
                "name": "Gundom",
                "asciiname": "Gundom",
                "alternativenames": "",
                "lat": "5.9969",
                "long": "9.9654"
            },
            {
                "name": "Acha Tugui",
                "asciiname": "Acha Tugui",
                "alternativenames": "Acha Tugi,Acha Tugui",
                "lat": "5.9909",
                "long": "9.943"
            },
            {
                "name": "Tonenja",
                "asciiname": "Tonenja",
                "alternativenames": "",
                "lat": "5.9915",
                "long": "9.9224"
            },
            {
                "name": "Tinaku",
                "asciiname": "Tinaku",
                "alternativenames": "",
                "lat": "5.9899",
                "long": "9.8887"
            },
            {
                "name": "Etwīi",
                "asciiname": "Etwii",
                "alternativenames": "",
                "lat": "5.9911",
                "long": "9.8574"
            },
            {
                "name": "Ngwokwong",
                "asciiname": "Ngwokwong",
                "alternativenames": "",
                "lat": "5.9747",
                "long": "9.912"
            },
            {
                "name": "Ntali",
                "asciiname": "Ntali",
                "alternativenames": "",
                "lat": "5.9641",
                "long": "9.9394"
            },
            {
                "name": "Zang Tabi",
                "asciiname": "Zang Tabi",
                "alternativenames": "",
                "lat": "5.9458",
                "long": "9.9136"
            },
            {
                "name": "Ajei",
                "asciiname": "Ajei",
                "alternativenames": "",
                "lat": "5.9415",
                "long": "9.8668"
            },
            {
                "name": "Abebung",
                "asciiname": "Abebung",
                "alternativenames": "",
                "lat": "5.938",
                "long": "9.8412"
            },
            {
                "name": "Banatu",
                "asciiname": "Banatu",
                "alternativenames": "",
                "lat": "5.9649",
                "long": "9.847"
            },
            {
                "name": "Kong",
                "asciiname": "Kong",
                "alternativenames": "",
                "lat": "5.9816",
                "long": "9.7588"
            },
            {
                "name": "Achang",
                "asciiname": "Achang",
                "alternativenames": "",
                "lat": "5.9953",
                "long": "9.7905"
            },
            {
                "name": "Edem",
                "asciiname": "Edem",
                "alternativenames": "",
                "lat": "5.9758",
                "long": "9.8011"
            },
            {
                "name": "Ebang",
                "asciiname": "Ebang",
                "alternativenames": "",
                "lat": "5.9926",
                "long": "9.8183"
            },
            {
                "name": "Angai",
                "asciiname": "Angai",
                "alternativenames": "",
                "lat": "5.9957",
                "long": "9.8298"
            },
            {
                "name": "Oguin",
                "asciiname": "Oguin",
                "alternativenames": "Ogin,Oguin",
                "lat": "5.9601",
                "long": "9.8069"
            },
            {
                "name": "Esaw",
                "asciiname": "Esaw",
                "alternativenames": "",
                "lat": "5.9517",
                "long": "9.7705"
            },
            {
                "name": "Achama",
                "asciiname": "Achama",
                "alternativenames": "",
                "lat": "5.9523",
                "long": "9.7407"
            },
            {
                "name": "Bosi",
                "asciiname": "Bosi",
                "alternativenames": "",
                "lat": "5.9692",
                "long": "9.7778"
            },
            {
                "name": "Angong",
                "asciiname": "Angong",
                "alternativenames": "",
                "lat": "5.9298",
                "long": "9.834"
            },
            {
                "name": "Kwendum",
                "asciiname": "Kwendum",
                "alternativenames": "Kwendum",
                "lat": "5.9148",
                "long": "9.851"
            },
            {
                "name": "Fanaye",
                "asciiname": "Fanaye",
                "alternativenames": "",
                "lat": "5.9266",
                "long": "9.8941"
            },
            {
                "name": "Trib",
                "asciiname": "Trib",
                "alternativenames": "",
                "lat": "5.9776",
                "long": "9.8394"
            },
            {
                "name": "Fok",
                "asciiname": "Fok",
                "alternativenames": "",
                "lat": "5.94779",
                "long": "9.74881"
            },
            {
                "name": "Chen",
                "asciiname": "Chen",
                "alternativenames": "",
                "lat": "5.9237",
                "long": "9.8017"
            },
            {
                "name": "Oneng",
                "asciiname": "Oneng",
                "alternativenames": "",
                "lat": "5.9321",
                "long": "9.8162"
            },
            {
                "name": "Anzoi",
                "asciiname": "Anzoi",
                "alternativenames": "",
                "lat": "5.9376",
                "long": "9.7097"
            },
            {
                "name": "Numba",
                "asciiname": "Numba",
                "alternativenames": "",
                "lat": "5.8389",
                "long": "9.7143"
            },
            {
                "name": "Afu",
                "asciiname": "Afu",
                "alternativenames": "",
                "lat": "5.8212",
                "long": "9.72"
            },
            {
                "name": "Ati",
                "asciiname": "Ati",
                "alternativenames": "",
                "lat": "5.8097",
                "long": "9.7062"
            },
            {
                "name": "Atie",
                "asciiname": "Atie",
                "alternativenames": "Atie",
                "lat": "5.8163",
                "long": "9.7547"
            },
            {
                "name": "Mobang",
                "asciiname": "Mobang",
                "alternativenames": "",
                "lat": "5.8126",
                "long": "9.7779"
            },
            {
                "name": "Diche II",
                "asciiname": "Diche II",
                "alternativenames": "",
                "lat": "5.8284",
                "long": "9.7769"
            },
            {
                "name": "Diche I",
                "asciiname": "Diche I",
                "alternativenames": "",
                "lat": "5.8499",
                "long": "9.7555"
            },
            {
                "name": "Nen",
                "asciiname": "Nen",
                "alternativenames": "",
                "lat": "5.827",
                "long": "9.8332"
            },
            {
                "name": "Akulabai",
                "asciiname": "Akulabai",
                "alternativenames": "",
                "lat": "5.8102",
                "long": "9.846"
            },
            {
                "name": "Atanga",
                "asciiname": "Atanga",
                "alternativenames": "",
                "lat": "5.8108",
                "long": "9.8793"
            },
            {
                "name": "Momom",
                "asciiname": "Momom",
                "alternativenames": "",
                "lat": "5.86",
                "long": "9.771"
            },
            {
                "name": "Ati",
                "asciiname": "Ati",
                "alternativenames": "",
                "lat": "5.8387",
                "long": "9.6865"
            },
            {
                "name": "Kwimomwe",
                "asciiname": "Kwimomwe",
                "alternativenames": "",
                "lat": "5.9751",
                "long": "9.9135"
            },
            {
                "name": "Jimako",
                "asciiname": "Jimako",
                "alternativenames": "",
                "lat": "5.8151",
                "long": "9.8992"
            },
            {
                "name": "Awun",
                "asciiname": "Awun",
                "alternativenames": "",
                "lat": "5.8238",
                "long": "9.9082"
            },
            {
                "name": "Aje",
                "asciiname": "Aje",
                "alternativenames": "",
                "lat": "5.8325",
                "long": "9.9312"
            },
            {
                "name": "Wom Guzang",
                "asciiname": "Wom Guzang",
                "alternativenames": "",
                "lat": "5.8202",
                "long": "9.958"
            },
            {
                "name": "Baranja",
                "asciiname": "Baranja",
                "alternativenames": "",
                "lat": "5.8022",
                "long": "9.9546"
            },
            {
                "name": "Ambo",
                "asciiname": "Ambo",
                "alternativenames": "",
                "lat": "5.7963",
                "long": "9.8871"
            },
            {
                "name": "Efa",
                "asciiname": "Efa",
                "alternativenames": "",
                "lat": "5.7773",
                "long": "9.8544"
            },
            {
                "name": "Abeshom",
                "asciiname": "Abeshom",
                "alternativenames": "",
                "lat": "5.7598",
                "long": "9.8853"
            },
            {
                "name": "Enyo",
                "asciiname": "Enyo",
                "alternativenames": "",
                "lat": "5.7823",
                "long": "9.9046"
            },
            {
                "name": "Nyen",
                "asciiname": "Nyen",
                "alternativenames": "",
                "lat": "5.7445",
                "long": "9.9503"
            },
            {
                "name": "Onamafong",
                "asciiname": "Onamafong",
                "alternativenames": "",
                "lat": "5.7208",
                "long": "9.8483"
            },
            {
                "name": "Ewa",
                "asciiname": "Ewa",
                "alternativenames": "",
                "lat": "5.7555",
                "long": "9.9161"
            },
            {
                "name": "Bache",
                "asciiname": "Bache",
                "alternativenames": "",
                "lat": "5.8132",
                "long": "9.8939"
            },
            {
                "name": "Kunsi",
                "asciiname": "Kunsi",
                "alternativenames": "",
                "lat": "5.8063",
                "long": "9.9249"
            },
            {
                "name": "Enega",
                "asciiname": "Enega",
                "alternativenames": "",
                "lat": "5.7954",
                "long": "9.9013"
            },
            {
                "name": "Enye",
                "asciiname": "Enye",
                "alternativenames": "",
                "lat": "5.8069",
                "long": "9.8828"
            },
            {
                "name": "Na",
                "asciiname": "Na",
                "alternativenames": "",
                "lat": "5.8153",
                "long": "9.9752"
            },
            {
                "name": "Kwawacho",
                "asciiname": "Kwawacho",
                "alternativenames": "",
                "lat": "5.7777",
                "long": "9.819"
            },
            {
                "name": "Akuruku",
                "asciiname": "Akuruku",
                "alternativenames": "",
                "lat": "5.7833",
                "long": "9.7873"
            },
            {
                "name": "Anum",
                "asciiname": "Anum",
                "alternativenames": "Anum",
                "lat": "5.7928",
                "long": "9.7661"
            },
            {
                "name": "Mbome",
                "asciiname": "Mbome",
                "alternativenames": "",
                "lat": "5.76",
                "long": "9.7794"
            },
            {
                "name": "Koano",
                "asciiname": "Koano",
                "alternativenames": "",
                "lat": "5.7721",
                "long": "9.7976"
            },
            {
                "name": "Kugwe",
                "asciiname": "Kugwe",
                "alternativenames": "",
                "lat": "5.7628",
                "long": "9.82"
            },
            {
                "name": "Nyeneba",
                "asciiname": "Nyeneba",
                "alternativenames": "",
                "lat": "5.7163",
                "long": "9.8534"
            },
            {
                "name": "Gurete Bambat",
                "asciiname": "Gurete Bambat",
                "alternativenames": "",
                "lat": "5.7083",
                "long": "9.8781"
            },
            {
                "name": "Tenguenye",
                "asciiname": "Tenguenye",
                "alternativenames": "",
                "lat": "5.7024",
                "long": "9.8789"
            },
            {
                "name": "Gumbo",
                "asciiname": "Gumbo",
                "alternativenames": "",
                "lat": "5.7321",
                "long": "9.955"
            },
            {
                "name": "Banti",
                "asciiname": "Banti",
                "alternativenames": "",
                "lat": "5.7044",
                "long": "9.9239"
            },
            {
                "name": "Kekpoti",
                "asciiname": "Kekpoti",
                "alternativenames": "",
                "lat": "5.7438",
                "long": "9.7208"
            },
            {
                "name": "Mosie",
                "asciiname": "Mosie",
                "alternativenames": "",
                "lat": "5.7397",
                "long": "9.74"
            },
            {
                "name": "Ayotu",
                "asciiname": "Ayotu",
                "alternativenames": "",
                "lat": "5.7192",
                "long": "9.7779"
            },
            {
                "name": "Ati",
                "asciiname": "Ati",
                "alternativenames": "",
                "lat": "5.762",
                "long": "9.7388"
            },
            {
                "name": "Bokwa",
                "asciiname": "Bokwa",
                "alternativenames": "",
                "lat": "5.7419",
                "long": "9.7447"
            },
            {
                "name": "Bator",
                "asciiname": "Bator",
                "alternativenames": "",
                "lat": "5.7861",
                "long": "9.6969"
            },
            {
                "name": "Onobiale",
                "asciiname": "Onobiale",
                "alternativenames": "",
                "lat": "5.7984",
                "long": "9.709"
            },
            {
                "name": "Alonkong",
                "asciiname": "Alonkong",
                "alternativenames": "",
                "lat": "5.6801",
                "long": "9.9849"
            },
            {
                "name": "Igumba",
                "asciiname": "Igumba",
                "alternativenames": "",
                "lat": "5.6912",
                "long": "9.9708"
            },
            {
                "name": "Old Bechati",
                "asciiname": "Old Bechati",
                "alternativenames": "",
                "lat": "5.6766",
                "long": "9.9693"
            },
            {
                "name": "Kenyang",
                "asciiname": "Kenyang",
                "alternativenames": "",
                "lat": "5.6655",
                "long": "9.9441"
            },
            {
                "name": "Folepi",
                "asciiname": "Folepi",
                "alternativenames": "",
                "lat": "5.6815",
                "long": "9.9196"
            },
            {
                "name": "Fonkem",
                "asciiname": "Fonkem",
                "alternativenames": "",
                "lat": "5.6621",
                "long": "9.9155"
            },
            {
                "name": "Fumbe",
                "asciiname": "Fumbe",
                "alternativenames": "",
                "lat": "5.6994",
                "long": "9.8757"
            },
            {
                "name": "Mak",
                "asciiname": "Mak",
                "alternativenames": "",
                "lat": "5.6567",
                "long": "9.7869"
            },
            {
                "name": "Nkong",
                "asciiname": "Nkong",
                "alternativenames": "",
                "lat": "5.5794",
                "long": "9.902"
            },
            {
                "name": "Fowando",
                "asciiname": "Fowando",
                "alternativenames": "",
                "lat": "5.5548",
                "long": "9.8794"
            },
            {
                "name": "Fosungu Wango",
                "asciiname": "Fosungu Wango",
                "alternativenames": "",
                "lat": "5.5886",
                "long": "9.966"
            },
            {
                "name": "Tafola",
                "asciiname": "Tafola",
                "alternativenames": "Tafola",
                "lat": "5.6228",
                "long": "9.9394"
            },
            {
                "name": "Fasimombin",
                "asciiname": "Fasimombin",
                "alternativenames": "",
                "lat": "5.6304",
                "long": "9.9817"
            },
            {
                "name": "Foba",
                "asciiname": "Foba",
                "alternativenames": "",
                "lat": "5.6156",
                "long": "9.9638"
            },
            {
                "name": "Bangang",
                "asciiname": "Bangang",
                "alternativenames": "",
                "lat": "5.6061",
                "long": "9.8876"
            },
            {
                "name": "Besali",
                "asciiname": "Besali",
                "alternativenames": "",
                "lat": "5.6337",
                "long": "9.9068"
            },
            {
                "name": "Agong",
                "asciiname": "Agong",
                "alternativenames": "",
                "lat": "5.6532",
                "long": "9.8978"
            },
            {
                "name": "Mo",
                "asciiname": "Mo",
                "alternativenames": "",
                "lat": "5.6481",
                "long": "9.8754"
            },
            {
                "name": "Bongo",
                "asciiname": "Bongo",
                "alternativenames": "",
                "lat": "5.6012",
                "long": "9.9161"
            },
            {
                "name": "Makéti",
                "asciiname": "Maketi",
                "alternativenames": "",
                "lat": "5.5872",
                "long": "9.9099"
            },
            {
                "name": "Fokwe",
                "asciiname": "Fokwe",
                "alternativenames": "",
                "lat": "5.5449",
                "long": "9.9445"
            },
            {
                "name": "Mbanga Pungo",
                "asciiname": "Mbanga Pungo",
                "alternativenames": "",
                "lat": "5.6241",
                "long": "9.8201"
            },
            {
                "name": "Ekpor",
                "asciiname": "Ekpor",
                "alternativenames": "",
                "lat": "5.6277",
                "long": "9.7881"
            },
            {
                "name": "Jilap",
                "asciiname": "Jilap",
                "alternativenames": "",
                "lat": "5.5606",
                "long": "9.945"
            },
            {
                "name": "Folembe",
                "asciiname": "Folembe",
                "alternativenames": "",
                "lat": "5.5368",
                "long": "9.8919"
            },
            {
                "name": "Mekoup",
                "asciiname": "Mekoup",
                "alternativenames": "",
                "lat": "5.4907",
                "long": "9.9902"
            },
            {
                "name": "Takum",
                "asciiname": "Takum",
                "alternativenames": "",
                "lat": "5.8214",
                "long": "9.823"
            },
            {
                "name": "Momom",
                "asciiname": "Momom",
                "alternativenames": "",
                "lat": "5.8541",
                "long": "9.935"
            },
            {
                "name": "Kunok",
                "asciiname": "Kunok",
                "alternativenames": "",
                "lat": "5.8558",
                "long": "9.8644"
            },
            {
                "name": "Banteng",
                "asciiname": "Banteng",
                "alternativenames": "",
                "lat": "5.7109",
                "long": "9.9817"
            },
            {
                "name": "Bome",
                "asciiname": "Bome",
                "alternativenames": "Bome",
                "lat": "5.97591",
                "long": "10.00104"
            },
            {
                "name": "Kopi Yang",
                "asciiname": "Kopi Yang",
                "alternativenames": "Kopi Yang,Kopinyang",
                "lat": "5.97543",
                "long": "10.02053"
            },
            {
                "name": "Ngembo",
                "asciiname": "Ngembo",
                "alternativenames": "Ngembo",
                "lat": "5.96387",
                "long": "10.03763"
            },
            {
                "name": "Tindyong",
                "asciiname": "Tindyong",
                "alternativenames": "Tindyong",
                "lat": "5.9893",
                "long": "10.04473"
            },
            {
                "name": "Abi",
                "asciiname": "Abi",
                "alternativenames": "Abi",
                "lat": "5.98445",
                "long": "10.01386"
            },
            {
                "name": "Nlabakam",
                "asciiname": "Nlabakam",
                "alternativenames": "Nabakam,Nlabakam",
                "lat": "5.96327",
                "long": "10.09532"
            },
            {
                "name": "Mezam",
                "asciiname": "Mezam",
                "alternativenames": "Machu,Mezam",
                "lat": "5.98805",
                "long": "10.05633"
            },
            {
                "name": "Lown",
                "asciiname": "Lown",
                "alternativenames": "Lown",
                "lat": "5.95452",
                "long": "10.12453"
            },
            {
                "name": "Ndabu",
                "asciiname": "Ndabu",
                "alternativenames": "Ndabu",
                "lat": "5.98615",
                "long": "10.11932"
            },
            {
                "name": "Ntambeng",
                "asciiname": "Ntambeng",
                "alternativenames": "Ntambeng",
                "lat": "5.99449",
                "long": "10.12995"
            },
            {
                "name": "Nsongwa",
                "asciiname": "Nsongwa",
                "alternativenames": "Nsongwa",
                "lat": "5.93222",
                "long": "10.12775"
            },
            {
                "name": "Wossing",
                "asciiname": "Wossing",
                "alternativenames": "Wossing,Wossing Bali",
                "lat": "5.92702",
                "long": "10.06021"
            },
            {
                "name": "Fonekuta",
                "asciiname": "Fonekuta",
                "alternativenames": "Fonekuta",
                "lat": "5.92444",
                "long": "10.03251"
            },
            {
                "name": "Djenka",
                "asciiname": "Djenka",
                "alternativenames": "Djenka,Njenka",
                "lat": "5.89819",
                "long": "10.02995"
            },
            {
                "name": "Baba",
                "asciiname": "Baba",
                "alternativenames": "Baba",
                "lat": "5.93812",
                "long": "10.05896"
            },
            {
                "name": "Bako",
                "asciiname": "Bako",
                "alternativenames": "Bako",
                "lat": "5.87229",
                "long": "10.03491"
            },
            {
                "name": "Koping",
                "asciiname": "Koping",
                "alternativenames": "Koping",
                "lat": "5.86028",
                "long": "10.04871"
            },
            {
                "name": "Mbu",
                "asciiname": "Mbu",
                "alternativenames": "Bafochu-Mbu,Mbu",
                "lat": "5.85049",
                "long": "10.07419"
            },
            {
                "name": "Baba",
                "asciiname": "Baba",
                "alternativenames": "Baba",
                "lat": "5.8639",
                "long": "10.1071"
            },
            {
                "name": "Naaka",
                "asciiname": "Naaka",
                "alternativenames": "Naaka",
                "lat": "5.92684",
                "long": "10.09544"
            },
            {
                "name": "Chomba",
                "asciiname": "Chomba",
                "alternativenames": "Chomba,Shomba",
                "lat": "5.90991",
                "long": "10.10074"
            },
            {
                "name": "Mboutou",
                "asciiname": "Mboutou",
                "alternativenames": "Mboutou,Mbutu",
                "lat": "5.90444",
                "long": "10.12897"
            },
            {
                "name": "Alatening",
                "asciiname": "Alatening",
                "alternativenames": "Alatening",
                "lat": "5.87087",
                "long": "10.12588"
            },
            {
                "name": "Akum",
                "asciiname": "Akum",
                "alternativenames": "Akum",
                "lat": "5.88973",
                "long": "10.15597"
            },
            {
                "name": "Mbe",
                "asciiname": "Mbe",
                "alternativenames": "Mbe,Mbei,Mbeï",
                "lat": "5.83443",
                "long": "10.15753"
            },
            {
                "name": "Nkwen",
                "asciiname": "Nkwen",
                "alternativenames": "Nkwen",
                "lat": "5.99517",
                "long": "10.19376"
            },
            {
                "name": "Kemkom",
                "asciiname": "Kemkom",
                "alternativenames": "Kemkom,Kèmkom",
                "lat": "5.9648",
                "long": "10.27552"
            },
            {
                "name": "Babank Tungo",
                "asciiname": "Babank Tungo",
                "alternativenames": "Babank Tungo",
                "lat": "5.97619",
                "long": "10.298"
            },
            {
                "name": "Lamessang",
                "asciiname": "Lamessang",
                "alternativenames": "Lamessang",
                "lat": "5.92991",
                "long": "10.30752"
            },
            {
                "name": "Lac Bambili",
                "asciiname": "Lac Bambili",
                "alternativenames": "Bambili Lake,Lac Bambili",
                "lat": "5.93518",
                "long": "10.24348"
            },
            {
                "name": "Bafut Ngemba N. A. Forestière Réserve",
                "asciiname": "Bafut Ngemba N. A. Forestiere Reserve",
                "alternativenames": "Bafut Ngemba Forest Reserve,Bafut Ngemba N. A. Forestiere Reserve,Bafut Ngemba N. A. Forestière Réserve",
                "lat": "5.89649",
                "long": "10.20066"
            },
            {
                "name": "Neshele",
                "asciiname": "Neshele",
                "alternativenames": "Neshele",
                "lat": "5.92325",
                "long": "10.23525"
            },
            {
                "name": "Njong",
                "asciiname": "Njong",
                "alternativenames": "Njong",
                "lat": "5.82564",
                "long": "10.17369"
            },
            {
                "name": "Nki Tchem",
                "asciiname": "Nki Tchem",
                "alternativenames": "Nki Ishem,Nki Tchem",
                "lat": "5.84926",
                "long": "10.16186"
            },
            {
                "name": "Benjo",
                "asciiname": "Benjo",
                "alternativenames": "Benjo",
                "lat": "5.86847",
                "long": "10.25272"
            },
            {
                "name": "Mufua",
                "asciiname": "Mufua",
                "alternativenames": "Mufua",
                "lat": "5.98236",
                "long": "10.39231"
            },
            {
                "name": "Mukie",
                "asciiname": "Mukie",
                "alternativenames": "Mukie,Mukié",
                "lat": "5.96148",
                "long": "10.40176"
            },
            {
                "name": "Bamunka",
                "asciiname": "Bamunka",
                "alternativenames": "Bamunka",
                "lat": "5.98276",
                "long": "10.45486"
            },
            {
                "name": "Missi",
                "asciiname": "Missi",
                "alternativenames": "Missi",
                "lat": "5.96182",
                "long": "10.48844"
            },
            {
                "name": "Bambani",
                "asciiname": "Bambani",
                "alternativenames": "Bambani",
                "lat": "5.92403",
                "long": "10.48444"
            },
            {
                "name": "Chossi",
                "asciiname": "Chossi",
                "alternativenames": "Chossi",
                "lat": "5.91641",
                "long": "10.44024"
            },
            {
                "name": "Ekwo",
                "asciiname": "Ekwo",
                "alternativenames": "Ekwo",
                "lat": "5.85127",
                "long": "10.39062"
            },
            {
                "name": "Tula",
                "asciiname": "Tula",
                "alternativenames": "Tula",
                "lat": "5.9499",
                "long": "10.39678"
            },